[{"id":6267,"name":"Actual Game - dru\u0161tvo za trgovinu i usluge","address":"Bulevar Zorana \u0110in\u0111i\u0107a 100\u00a0","postal_code":"11070","city":"Beograd ","municipality":"Novi Beograd","latitude":"44.81957","longitude":"20.41582","created_at":"2020-12-19T08:15:00.000000Z","updated_at":"2020-12-19T09:58:38.000000Z"},{"id":6268,"name":"Atlantik kladionica","address":"Gr\u010di\u0107a Milenka 73\u00a0","postal_code":"11050","city":"Beograd ","municipality":"Vo\u017edovac","latitude":"44.78406","longitude":"20.48598","created_at":"2020-12-19T08:15:01.000000Z","updated_at":"2020-12-19T09:58:39.000000Z"},{"id":6270,"name":"Atlantik kladionica","address":"Bulevar kralja Aleksandra 491\u00a0","postal_code":"11160","city":"Beograd ","municipality":"Zvezdara","latitude":"44.77921","longitude":"20.5269","created_at":"2020-12-19T08:15:02.000000Z","updated_at":"2020-12-19T09:58:39.000000Z"},{"id":6271,"name":"Atlantik kladionica","address":"Koste Manojlovi\u0107a 25\u00a0","postal_code":"11211","city":"Beograd ","municipality":"Bor\u010da","latitude":"44.88065","longitude":"20.45705","created_at":"2020-12-19T08:15:02.000000Z","updated_at":"2020-12-19T09:58:40.000000Z"},{"id":6273,"name":"Atlantik kladionica","address":"Slavka Miljkovi\u0107a 55\u00a0","postal_code":"11231","city":"Beograd ","municipality":"Rakovica","latitude":"44.71518","longitude":"20.4608","created_at":"2020-12-19T08:15:03.000000Z","updated_at":"2020-12-19T09:58:41.000000Z"},{"id":6275,"name":"Atlantik kladionica","address":"Obili\u0107ev venac 10\u00a0","postal_code":"11000","city":"Beograd ","municipality":"Stari Grad","latitude":"44.81608","longitude":"20.45703","created_at":"2020-12-19T08:15:04.000000Z","updated_at":"2020-12-19T09:58:42.000000Z"},{"id":6276,"name":"Atlantik kladionica","address":"Bra\u0107e Jerkovi\u0107a 134\u00a0","postal_code":"11000","city":"Beograd ","municipality":"Vo\u017edovac","latitude":"44.76731","longitude":"20.50083","created_at":"2020-12-19T08:15:05.000000Z","updated_at":"2020-12-19T09:58:42.000000Z"},{"id":6277,"name":"Atlantik kladionica","address":"To\u0161in bunar 174\/A\u00a0","postal_code":"11080","city":"Beograd ","municipality":"Novi Beograd","latitude":"44.82706","longitude":"20.39788","created_at":"2020-12-19T08:15:05.000000Z","updated_at":"2020-12-19T09:58:42.000000Z"},{"id":6278,"name":"Atlantik kladionica","address":"Valjevskog odreda 31\u00a0","postal_code":"11211","city":"Beograd ","municipality":"Bor\u010da","latitude":"44.87888","longitude":"20.45652","created_at":"2020-12-19T08:15:06.000000Z","updated_at":"2020-12-19T09:58:43.000000Z"},{"id":6279,"name":"Atlantik kladionica","address":"Kneza Vi\u0161eslava 29\/\u0110\u00a0","postal_code":"11090","city":"Beograd ","municipality":"Rakovica","latitude":"44.7539","longitude":"20.43784","created_at":"2020-12-19T08:15:06.000000Z","updated_at":"2020-12-19T09:58:43.000000Z"},{"id":6281,"name":"Atlantik kladionica","address":"Jurija Gagarina 227\u00a0","postal_code":"11070","city":"Beograd ","municipality":"Novi Beograd","latitude":"44.7988","longitude":"20.37515","created_at":"2020-12-19T08:15:07.000000Z","updated_at":"2020-12-19T09:58:44.000000Z"},{"id":6282,"name":"Atlantik kladionica","address":"Bulevar mar\u0161ala Tolbuhina 27\u00a0","postal_code":"11070","city":"Beograd ","municipality":"Novi Beograd","latitude":"44.83069","longitude":"20.41402","created_at":"2020-12-19T08:15:08.000000Z","updated_at":"2020-12-19T09:58:45.000000Z"},{"id":6284,"name":"Atlantik kladionica","address":"11. kraji\u0161ke divizije 52\/D\u00a0","postal_code":"11090","city":"Beograd ","municipality":"Rakovica","latitude":"44.72166","longitude":"20.43024","created_at":"2020-12-19T08:15:09.000000Z","updated_at":"2020-12-19T09:58:45.000000Z"},{"id":6286,"name":"Atlantik kladionica","address":"Jurija Gagarina 33\/B\u00a0","postal_code":"11070","city":"Beograd ","municipality":"Novi Beograd","latitude":"44.80324","longitude":"20.39647","created_at":"2020-12-19T08:15:10.000000Z","updated_at":"2020-12-19T09:58:46.000000Z"},{"id":6292,"name":"Atlantik kladionica","address":"Vojvode \u0160upljikca 39\u00a0","postal_code":"11050","city":"Beograd ","municipality":"Zvezdara","latitude":"44.7985","longitude":"20.48632","created_at":"2020-12-19T08:15:13.000000Z","updated_at":"2020-12-19T09:58:49.000000Z"},{"id":6294,"name":"Atlantik kladionica","address":"Vladimira Popovi\u0107a 52\u00a0","postal_code":"11070","city":"Beograd ","municipality":"Novi Beograd","latitude":"44.80511","longitude":"20.42662","created_at":"2020-12-19T08:15:14.000000Z","updated_at":"2020-12-19T09:58:50.000000Z"},{"id":6295,"name":"Atlantik kladionica","address":"D\u017eona Kenedija bb\u00a0","postal_code":"11080","city":"Beograd ","municipality":"Zemun","latitude":"44.76153","longitude":"20.5381","created_at":"2020-12-19T08:15:14.000000Z","updated_at":"2020-12-19T10:38:57.000000Z"},{"id":6296,"name":"Atlantik kladionica","address":"Grge Andrijanovi\u0107a ulica 2. 4\u00a0","postal_code":"11210","city":"Beograd ","municipality":"Palilula","latitude":"44.83986","longitude":"20.49247","created_at":"2020-12-19T08:15:15.000000Z","updated_at":"2020-12-19T09:58:51.000000Z"},{"id":6297,"name":"Kladionica Korner","address":"Dr Ivana Ribara 115\/A\u00a0","postal_code":"11073","city":"Beograd ","municipality":"Novi Beograd","latitude":"44.79632","longitude":"20.3763","created_at":"2020-12-19T08:15:15.000000Z","updated_at":"2020-12-19T09:58:51.000000Z"},{"id":6298,"name":"Kladionica OktagonBet","address":"Oblakovska 61\/A\u00a0","postal_code":"11040","city":"Beograd ","municipality":"Savski Venac","latitude":"44.79449","longitude":"20.45941","created_at":"2020-12-19T08:15:16.000000Z","updated_at":"2020-12-19T09:58:52.000000Z"},{"id":6299,"name":"Kladionica OktagonBet","address":"Pavla Vujisi\u0107a 69\/B\u00a0","postal_code":"11080","city":"Beograd ","municipality":"Zemun","latitude":"44.85274","longitude":"20.3475","created_at":"2020-12-19T08:15:16.000000Z","updated_at":"2020-12-19T09:58:52.000000Z"},{"id":6300,"name":"Kladionica OktagonBet","address":"Vojvode Stepe 490\/A\u00a0","postal_code":"11000","city":"Beograd ","municipality":"Vo\u017edovac","latitude":"44.74166","longitude":"20.50007","created_at":"2020-12-19T08:15:17.000000Z","updated_at":"2020-12-19T09:58:53.000000Z"},{"id":6301,"name":"Kladionica OktagonBet","address":"Kumodra\u0161ka 122\u00a0","postal_code":"11010","city":"Beograd ","municipality":"Vo\u017edovac","latitude":"44.77594","longitude":"20.48105","created_at":"2020-12-19T08:15:17.000000Z","updated_at":"2020-12-19T09:58:53.000000Z"},{"id":6302,"name":"Kladionica OktagonBet","address":"Mileve Mari\u0107 Ajn\u0161tajn 52\u00a0","postal_code":"11073","city":"Beograd ","municipality":"Novi Beograd","latitude":"44.79983","longitude":"20.36485","created_at":"2020-12-19T08:15:18.000000Z","updated_at":"2020-12-19T09:58:54.000000Z"},{"id":6304,"name":"Kladionica OktagonBet","address":"Vi\u0161nji\u010dka 91\u00a0","postal_code":"11060","city":"Beograd ","municipality":"Palilula","latitude":"44.81816","longitude":"20.52239","created_at":"2020-12-19T08:15:19.000000Z","updated_at":"2020-12-19T09:58:54.000000Z"},{"id":6307,"name":"Kladionica OktagonBet","address":"Rableova bb\u00a0","postal_code":"11000","city":"Beograd ","municipality":"Zvezdara","latitude":"44.78776","longitude":"20.53435","created_at":"2020-12-19T08:15:20.000000Z","updated_at":"2020-12-19T10:38:57.000000Z"},{"id":6308,"name":"Kladionica OktagonBet","address":"Bra\u0107e Srni\u0107 23\/A\u00a0","postal_code":"11000","city":"Beograd ","municipality":"Vo\u017edovac","latitude":"44.77261","longitude":"20.50683","created_at":"2020-12-19T08:15:21.000000Z","updated_at":"2020-12-19T09:58:56.000000Z"},{"id":6309,"name":"Kladionica Olimp","address":"Bulevar kralja Aleksandra 332\u00a0","postal_code":"11160","city":"Beograd ","municipality":"Zvezdara","latitude":"44.79363","longitude":"20.50249","created_at":"2020-12-19T08:15:21.000000Z","updated_at":"2020-12-19T09:58:57.000000Z"},{"id":6310,"name":"Kladionica Olimp","address":"Neznanog junaka 4\u00a0","postal_code":"11040","city":"Beograd ","municipality":"Savski Venac","latitude":"44.77651","longitude":"20.45907","created_at":"2020-12-19T08:15:22.000000Z","updated_at":"2020-12-19T09:58:57.000000Z"},{"id":6311,"name":"Kladionica Olimp","address":"Vinogradska 124\/A\u00a0","postal_code":"11077","city":"Beograd ","municipality":"Novi Beograd","latitude":"44.79926","longitude":"20.35276","created_at":"2020-12-19T08:15:22.000000Z","updated_at":"2020-12-19T09:58:58.000000Z"},{"id":6312,"name":"Kladionica Olimp","address":"Ustani\u010dka 63\u00a0","postal_code":"11050","city":"Beograd ","municipality":"Vo\u017edovac","latitude":"44.78705","longitude":"20.47897","created_at":"2020-12-19T08:15:23.000000Z","updated_at":"2020-12-19T09:58:58.000000Z"},{"id":6313,"name":"Kladionica Olimp","address":"Bulevar kralja Aleksandra 319\u00a0","postal_code":"11160","city":"Beograd ","municipality":"Zvezdara","latitude":"44.79272","longitude":"20.50822","created_at":"2020-12-19T08:15:23.000000Z","updated_at":"2020-12-19T09:58:58.000000Z"},{"id":6314,"name":"Kladionica Olimp","address":"Vojvode Stepe 206\u00a0","postal_code":"11221","city":"Beograd ","municipality":"Vo\u017edovac","latitude":"44.77275","longitude":"20.47691","created_at":"2020-12-19T08:15:24.000000Z","updated_at":"2020-12-19T09:58:59.000000Z"},{"id":6315,"name":"Kladionica Olimp","address":"Dragoslava Srejovi\u0107a 72\/P\u00a0","postal_code":"11160","city":"Beograd ","municipality":"Palilula","latitude":"44.80214","longitude":"20.5233","created_at":"2020-12-19T08:15:24.000000Z","updated_at":"2020-12-19T09:58:59.000000Z"},{"id":6316,"name":"Kladionica Olimp","address":"\u010cika Ljubina 6\u00a0","postal_code":"11000","city":"Beograd ","municipality":"Stari Grad","latitude":"44.81699","longitude":"20.45907","created_at":"2020-12-19T08:15:25.000000Z","updated_at":"2020-12-19T09:59:00.000000Z"},{"id":6318,"name":"MaxBet sportska kladionica","address":"Ratka Mitrovi\u0107a 154\u00a0","postal_code":"11030","city":"Beograd ","municipality":"\u010cukarica","latitude":"44.74901","longitude":"20.42863","created_at":"2020-12-19T08:15:26.000000Z","updated_at":"2020-12-19T09:59:01.000000Z"},{"id":6320,"name":"MaxBet sportska kladionica","address":"Jurija Gagarina 87-89\/lokal 255\u00a0","postal_code":"11070","city":"Beograd ","municipality":"Novi Beograd","latitude":"44.80312","longitude":"20.39339","created_at":"2020-12-19T08:15:27.000000Z","updated_at":"2020-12-19T09:59:01.000000Z"},{"id":6321,"name":"MaxBet sportska kladionica","address":"Patrijarha Joanikija 24\/B\u00a0","postal_code":"11090","city":"Beograd ","municipality":"Rakovica","latitude":"44.73772","longitude":"20.4201","created_at":"2020-12-19T08:15:27.000000Z","updated_at":"2020-12-19T09:59:02.000000Z"},{"id":6323,"name":"MaxBet sportska kladionica","address":"Kneza Vi\u0161eslava 29\/\u0110\u00a0","postal_code":"11090","city":"Beograd ","municipality":"Rakovica","latitude":"44.7539","longitude":"20.43784","created_at":"2020-12-19T08:15:28.000000Z","updated_at":"2020-12-19T09:59:03.000000Z"},{"id":6325,"name":"MaxBet sportska kladionica","address":"Save Mrkalja 26\u00a0","postal_code":"11211","city":"Beograd ","municipality":"Bor\u010da","latitude":"44.88044","longitude":"20.45784","created_at":"2020-12-19T08:15:29.000000Z","updated_at":"2020-12-19T09:59:04.000000Z"},{"id":6326,"name":"MaxBet sportska kladionica","address":"Jurija Gagarina 164\/A\u00a0","postal_code":"11070","city":"Beograd ","municipality":"Novi Beograd","latitude":"44.80135","longitude":"20.37401","created_at":"2020-12-19T08:15:30.000000Z","updated_at":"2020-12-19T09:59:04.000000Z"},{"id":6330,"name":"MaxBet sportska kladionica","address":"Dimitrija Tucovi\u0107a 69\u00a0","postal_code":"11000","city":"Beograd ","municipality":"Zvezdara","latitude":"44.80205","longitude":"20.49126","created_at":"2020-12-19T08:15:32.000000Z","updated_at":"2020-12-19T09:59:06.000000Z"},{"id":6332,"name":"MaxBet sportska kladionica","address":"Vojvode Stepe 184\u00a0","postal_code":"11221","city":"Beograd ","municipality":"Vo\u017edovac","latitude":"44.77402","longitude":"20.47611","created_at":"2020-12-19T08:15:33.000000Z","updated_at":"2020-12-19T09:59:07.000000Z"},{"id":6334,"name":"MaxBet sportska kladionica","address":"Bulevar kralja Aleksandra 336\u00a0","postal_code":"11160","city":"Beograd ","municipality":"Zvezdara","latitude":"44.79343","longitude":"20.50293","created_at":"2020-12-19T08:15:34.000000Z","updated_at":"2020-12-19T09:59:07.000000Z"},{"id":6337,"name":"MaxBet sportska kladionica","address":"Vojislava Ili\u0107a 21-23\u00a0","postal_code":"11050","city":"Beograd ","municipality":"Vo\u017edovac","latitude":"44.78155","longitude":"20.50196","created_at":"2020-12-19T08:15:35.000000Z","updated_at":"2020-12-19T10:00:05.000000Z"},{"id":6338,"name":"MaxBet sportska kladionica","address":"Dr Milutina Ivkovi\u0107a 2\/A\u00a0","postal_code":"11040","city":"Beograd ","municipality":"Savski Venac","latitude":"44.78803","longitude":"20.46502","created_at":"2020-12-19T08:15:36.000000Z","updated_at":"2020-12-19T10:00:06.000000Z"},{"id":6340,"name":"MaxBet sportska kladionica","address":"Bratstva i jedinstva 31\u00a0","postal_code":"11211","city":"Beograd ","municipality":"Bor\u010da","latitude":"44.88511","longitude":"20.45784","created_at":"2020-12-19T08:15:37.000000Z","updated_at":"2020-12-19T10:00:07.000000Z"},{"id":6342,"name":"MaxBet sportska kladionica","address":"Bulevar kralja Aleksandra 228\u00a0","postal_code":"11160","city":"Beograd ","municipality":"Zvezdara","latitude":"44.7988","longitude":"20.49013","created_at":"2020-12-19T08:15:38.000000Z","updated_at":"2020-12-19T10:00:07.000000Z"},{"id":6344,"name":"MaxBet sportska kladionica","address":"Mihaila Todorovi\u0107a 14\/\u0110\u00a0","postal_code":"11000","city":"Beograd ","municipality":"Zvezdara","latitude":"44.76861","longitude":"20.50402","created_at":"2020-12-19T08:15:39.000000Z","updated_at":"2020-12-19T10:00:09.000000Z"},{"id":6353,"name":"MaxBet sportska kladionica","address":"Zrenjaninski put 62\/A\u00a0","postal_code":"11210","city":"Beograd ","municipality":"Palilula","latitude":"44.84614","longitude":"20.48858","created_at":"2020-12-19T08:15:43.000000Z","updated_at":"2020-12-19T10:00:12.000000Z"},{"id":6355,"name":"MaxBet sportska kladionica","address":"Beogradska 22\u00a0","postal_code":"11253","city":"Beograd ","municipality":"Srem\u010dica","latitude":"44.68615","longitude":"20.38206","created_at":"2020-12-19T08:15:44.000000Z","updated_at":"2020-12-19T10:00:13.000000Z"},{"id":6356,"name":"MaxBet sportska kladionica","address":"Dragi\u0161e Bra\u0161ovana 1\u00a0","postal_code":"11070","city":"Beograd ","municipality":"Novi Beograd","latitude":"44.81971","longitude":"20.3873","created_at":"2020-12-19T08:15:45.000000Z","updated_at":"2020-12-19T10:00:14.000000Z"},{"id":6357,"name":"MaxBet sportska kladionica","address":"Bulevar Zorana \u0110in\u0111i\u0107a 65\u00a0","postal_code":"11070","city":"Beograd ","municipality":"Novi Beograd","latitude":"44.81623","longitude":"20.4203","created_at":"2020-12-19T08:15:45.000000Z","updated_at":"2020-12-19T10:00:14.000000Z"},{"id":6360,"name":"MaxBet sportska kladionica","address":"Gospodara Vu\u010di\u0107a 176\/A\u00a0","postal_code":"11050","city":"Beograd ","municipality":"Vo\u017edovac","latitude":"44.79048","longitude":"20.49337","created_at":"2020-12-19T08:15:47.000000Z","updated_at":"2020-12-19T10:00:15.000000Z"},{"id":6361,"name":"MaxBet sportska kladionica","address":"Paunova 48\u00a0","postal_code":"11040","city":"Beograd ","municipality":"Vo\u017edovac","latitude":"44.7539","longitude":"20.47741","created_at":"2020-12-19T08:15:47.000000Z","updated_at":"2020-12-19T10:00:16.000000Z"},{"id":6363,"name":"MaxBet sportska kladionica","address":"Bulevar kralja Aleksandra 115\u00a0","postal_code":"11160","city":"Beograd ","municipality":"Zvezdara","latitude":"44.8016","longitude":"20.48517","created_at":"2020-12-19T08:15:48.000000Z","updated_at":"2020-12-19T10:00:17.000000Z"},{"id":6364,"name":"MaxBet sportska kladionica","address":"Obalskih radnika 43\u00a0","postal_code":"11030","city":"Beograd ","municipality":"\u010cukarica","latitude":"44.77659","longitude":"20.40722","created_at":"2020-12-19T08:15:49.000000Z","updated_at":"2020-12-19T10:00:17.000000Z"},{"id":6367,"name":"MaxBet sportska kladionica","address":"Sur\u010dinska 63\u00a0","postal_code":"11070","city":"Beograd ","municipality":"Novi Beograd","latitude":"44.80548","longitude":"20.34952","created_at":"2020-12-19T08:15:50.000000Z","updated_at":"2020-12-19T10:00:19.000000Z"},{"id":6369,"name":"MaxBet sportska kladionica","address":"Glavna 45\/lokal 1\u00a0","postal_code":"11080","city":"Beograd ","municipality":"Zemun","latitude":"44.84579","longitude":"20.40961","created_at":"2020-12-19T08:15:51.000000Z","updated_at":"2020-12-19T10:00:19.000000Z"},{"id":6370,"name":"MaxBet sportska kladionica","address":"Ljubi\u0161e Miodragovi\u0107a 43\/B\u00a0","postal_code":"11160","city":"Beograd ","municipality":"Zvezdara","latitude":"44.78717","longitude":"20.54678","created_at":"2020-12-19T08:15:52.000000Z","updated_at":"2020-12-19T10:00:20.000000Z"},{"id":6372,"name":"MaxBet sportska kladionica","address":"Ov\u010danski put 45\u00a0","postal_code":"11211","city":"Beograd ","municipality":"Bor\u010da","latitude":"44.88178","longitude":"20.47184","created_at":"2020-12-19T08:15:53.000000Z","updated_at":"2020-12-19T10:00:21.000000Z"},{"id":6373,"name":"MaxBet sportska kladionica","address":"Vojvo\u0111anska 110\u00a0","postal_code":"11271","city":"Beograd ","municipality":"Sur\u010din","latitude":"44.7914","longitude":"20.27296","created_at":"2020-12-19T08:15:53.000000Z","updated_at":"2020-12-19T10:00:21.000000Z"},{"id":6375,"name":"Mozzart kladionica","address":"Beogradska 14\u00a0","postal_code":"11253","city":"Beograd ","municipality":"Srem\u010dica","latitude":"44.68673","longitude":"20.38171","created_at":"2020-12-19T08:15:54.000000Z","updated_at":"2020-12-19T10:00:22.000000Z"},{"id":6377,"name":"Mozzart kladionica","address":"Neboj\u0161ina 41\/A\u00a0","postal_code":"11118","city":"Beograd ","municipality":"Vra\u010dar","latitude":"44.79427","longitude":"20.46722","created_at":"2020-12-19T08:15:55.000000Z","updated_at":"2020-12-19T10:00:23.000000Z"},{"id":6378,"name":"Mozzart kladionica","address":"Vojvode Stepe Stepanovi\u0107a 11\/C\u00a0","postal_code":"11130","city":"Beograd ","municipality":"Kalu\u0111erica","latitude":"44.75995","longitude":"20.55137","created_at":"2020-12-19T08:15:56.000000Z","updated_at":"2020-12-19T10:00:23.000000Z"},{"id":6381,"name":"Mozzart kladionica","address":"\u0110or\u0111a Stanojevi\u0107a 9\/A\u00a0","postal_code":"11070","city":"Beograd ","municipality":"Novi Beograd","latitude":"44.80818","longitude":"20.40451","created_at":"2020-12-19T08:15:57.000000Z","updated_at":"2020-12-19T10:38:58.000000Z"},{"id":6382,"name":"Mozzart kladionica","address":"Franje Kr\u010da 5\u00a0","postal_code":"11185","city":"Beograd ","municipality":"Zemun","latitude":"44.87454","longitude":"20.32089","created_at":"2020-12-19T08:15:58.000000Z","updated_at":"2020-12-19T10:00:25.000000Z"},{"id":6384,"name":"Mozzart kladionica","address":"Dobanova\u010dki put 30\u00a0","postal_code":"11283","city":"Beograd ","municipality":"Zemun","latitude":"44.84736","longitude":"20.36623","created_at":"2020-12-19T08:15:59.000000Z","updated_at":"2020-12-19T10:00:26.000000Z"},{"id":6385,"name":"Mozzart kladionica","address":"Smederevski put 22\/G\u00a0","postal_code":"11130","city":"Beograd ","municipality":"Zvezdara","latitude":"44.76706","longitude":"20.56096","created_at":"2020-12-19T08:15:59.000000Z","updated_at":"2020-12-19T10:00:27.000000Z"},{"id":6387,"name":"Mozzart kladionica","address":"Ljermontovljeva 19\u00a0","postal_code":"11000","city":"Beograd ","municipality":"Vo\u017edovac","latitude":"44.78299","longitude":"20.49115","created_at":"2020-12-19T08:16:00.000000Z","updated_at":"2020-12-19T10:00:27.000000Z"},{"id":6389,"name":"Mozzart kladionica","address":"Bulevar umetnosti 1\/lokal 1\u00a0","postal_code":"11070","city":"Beograd ","municipality":"Novi Beograd","latitude":"44.82155","longitude":"20.41757","created_at":"2020-12-19T08:16:01.000000Z","updated_at":"2020-12-19T10:00:28.000000Z"},{"id":6390,"name":"Mozzart kladionica","address":"Strugarska 1\/A\u00a0","postal_code":"11000","city":"Beograd ","municipality":"\u010cukarica","latitude":"44.77715","longitude":"20.40645","created_at":"2020-12-19T08:16:02.000000Z","updated_at":"2020-12-19T10:00:29.000000Z"},{"id":6391,"name":"Mozzart kladionica","address":"Kneza Vi\u0161eslava 63\/lokal 1.8\u00a0","postal_code":"11090","city":"Beograd ","municipality":"Rakovica","latitude":"44.74446","longitude":"20.42679","created_at":"2020-12-19T08:16:02.000000Z","updated_at":"2020-12-19T10:00:29.000000Z"},{"id":6392,"name":"Mozzart kladionica","address":"Omladinskih brigada 65\/V\u00a0","postal_code":"11070","city":"Beograd ","municipality":"Novi Beograd","latitude":"44.80024","longitude":"20.40203","created_at":"2020-12-19T08:16:03.000000Z","updated_at":"2020-12-19T10:00:29.000000Z"},{"id":6393,"name":"Mozzart kladionica","address":"Gandijeva 148\/A\/lokal 40\u00a0","postal_code":"11073","city":"Beograd ","municipality":"Novi Beograd","latitude":"44.80092","longitude":"20.38831","created_at":"2020-12-19T08:16:03.000000Z","updated_at":"2020-12-19T10:00:30.000000Z"},{"id":6394,"name":"Mozzart kladionica","address":"Antifa\u0161isti\u010dke borbe 28\/lokal 20\u00a0","postal_code":"11070","city":"Beograd ","municipality":"Novi Beograd","latitude":"44.8131","longitude":"20.42315","created_at":"2020-12-19T08:16:04.000000Z","updated_at":"2020-12-19T10:00:30.000000Z"},{"id":6398,"name":"Mozzart kladionica","address":"Majora Zorana Radosavljevi\u0107a 224-226\u00a0","postal_code":"11273","city":"Beograd ","municipality":"Zemun","latitude":"44.89606","longitude":"20.29299","created_at":"2020-12-19T08:16:06.000000Z","updated_at":"2020-12-19T10:00:32.000000Z"},{"id":6399,"name":"Mozzart kladionica","address":"Bulevar Zorana \u0110in\u0111i\u0107a 87\/lokal 1\u00a0","postal_code":"11070","city":"Beograd ","municipality":"Novi Beograd","latitude":"44.81633","longitude":"20.41825","created_at":"2020-12-19T08:16:06.000000Z","updated_at":"2020-12-19T10:00:59.000000Z"},{"id":6400,"name":"Mozzart kladionica","address":"Makedonska 5\u00a0","postal_code":"11000","city":"Beograd ","municipality":"Stari Grad","latitude":"44.81608","longitude":"20.46183","created_at":"2020-12-19T08:16:07.000000Z","updated_at":"2020-12-19T10:00:59.000000Z"},{"id":6401,"name":"Mozzart kladionica","address":"Resavska 3\u00a0","postal_code":"11000","city":"Beograd ","municipality":"Vra\u010dar","latitude":"44.8091","longitude":"20.46755","created_at":"2020-12-19T08:16:07.000000Z","updated_at":"2020-12-19T10:01:00.000000Z"},{"id":6405,"name":"Mozzart kladionica","address":"Gandijeva 46\u00a0","postal_code":"11070","city":"Beograd ","municipality":"Novi Beograd","latitude":"44.80805","longitude":"20.38322","created_at":"2020-12-19T08:16:09.000000Z","updated_at":"2020-12-19T10:01:02.000000Z"},{"id":6410,"name":"Mozzart kladionica","address":"11. kraji\u0161ke divizije 52\/A\u00a0","postal_code":"11090","city":"Beograd ","municipality":"Rakovica","latitude":"44.72166","longitude":"20.43024","created_at":"2020-12-19T08:16:12.000000Z","updated_at":"2020-12-19T10:01:04.000000Z"},{"id":6412,"name":"Mozzart kladionica","address":"Dragi\u0161e Bra\u0161ovana 1\u00a0","postal_code":"11070","city":"Beograd ","municipality":"Novi Beograd","latitude":"44.81971","longitude":"20.3873","created_at":"2020-12-19T08:16:13.000000Z","updated_at":"2020-12-19T10:01:05.000000Z"},{"id":6416,"name":"Mozzart kladionica","address":"Bra\u0107e Srni\u0107 23\/A\u00a0","postal_code":"11050","city":"Beograd ","municipality":"Zvezdara","latitude":"44.77282","longitude":"20.50787","created_at":"2020-12-19T08:16:15.000000Z","updated_at":"2020-12-19T10:01:06.000000Z"},{"id":6417,"name":"Mozzart kladionica","address":"Bulevar kralja Aleksandra 265\u00a0","postal_code":"11000","city":"Beograd ","municipality":"Zvezdara","latitude":"44.79426","longitude":"20.50336","created_at":"2020-12-19T08:16:15.000000Z","updated_at":"2020-12-19T10:01:07.000000Z"},{"id":6420,"name":"Mozzart kladionica","address":"Medakovi\u0107eva 96\/A\u00a0","postal_code":"11050","city":"Beograd ","municipality":"Vo\u017edovac","latitude":"44.77553","longitude":"20.49695","created_at":"2020-12-19T08:16:17.000000Z","updated_at":"2020-12-19T10:01:08.000000Z"},{"id":6431,"name":"Mozzart kladionica","address":"Jurija Gagarina 31\u00a0","postal_code":"11070","city":"Beograd ","municipality":"Novi Beograd","latitude":"44.80345","longitude":"20.39715","created_at":"2020-12-19T08:16:22.000000Z","updated_at":"2020-12-19T10:01:13.000000Z"},{"id":6433,"name":"Mozzart kladionica","address":"Vodovodska 121\u00a0","postal_code":"11147","city":"Beograd ","municipality":"\u010cukarica","latitude":"44.74194","longitude":"20.39419","created_at":"2020-12-19T08:16:23.000000Z","updated_at":"2020-12-19T10:38:59.000000Z"},{"id":6434,"name":"Mozzart kladionica","address":"Bulevar oslobo\u0111enja 17\u00a0","postal_code":"11306","city":"Beograd ","municipality":"Grocka","latitude":"44.67388","longitude":"20.71581","created_at":"2020-12-19T08:16:24.000000Z","updated_at":"2020-12-19T10:38:59.000000Z"},{"id":6435,"name":"Mozzart kladionica","address":"Mije Kova\u010devi\u0107a 9\u00a0","postal_code":"11120","city":"Beograd ","municipality":"Palilula","latitude":"44.81406","longitude":"20.49024","created_at":"2020-12-19T08:16:24.000000Z","updated_at":"2020-12-19T10:01:15.000000Z"},{"id":6439,"name":"Mozzart kladionica","address":"Blagoja Parovi\u0107a 23\u00a0","postal_code":"11030","city":"Beograd ","municipality":"\u010cukarica","latitude":"44.7711","longitude":"20.41749","created_at":"2020-12-19T08:16:26.000000Z","updated_at":"2020-12-19T10:01:16.000000Z"},{"id":6442,"name":"Mozzart kladionica","address":"Kosmajska 56\u00a0","postal_code":"11030","city":"Beograd ","municipality":"\u010cukarica","latitude":"44.75081","longitude":"20.41714","created_at":"2020-12-19T08:16:28.000000Z","updated_at":"2020-12-19T10:01:18.000000Z"},{"id":6445,"name":"Mozzart kladionica","address":"Bulevar vojvode Mi\u0161i\u0107a 33\u00a0","postal_code":"11040","city":"Beograd ","municipality":"Savski Venac","latitude":"44.79615","longitude":"20.44252","created_at":"2020-12-19T08:16:29.000000Z","updated_at":"2020-12-19T10:01:19.000000Z"},{"id":6448,"name":"Mozzart kladionica","address":"Bra\u0107e Jerkovi\u0107a 137\u00a0","postal_code":"11010","city":"Beograd ","municipality":"Vo\u017edovac","latitude":"44.76438","longitude":"20.49506","created_at":"2020-12-19T08:16:31.000000Z","updated_at":"2020-12-19T10:01:20.000000Z"},{"id":6450,"name":"Mozzart kladionica","address":"Jurija Gagarina 231\u00a0","postal_code":"11070","city":"Beograd ","municipality":"Novi Beograd","latitude":"44.79805","longitude":"20.37334","created_at":"2020-12-19T08:16:32.000000Z","updated_at":"2020-12-19T10:01:21.000000Z"},{"id":6454,"name":"Mozzart kladionica","address":"Avalska 1\/A\u00a0","postal_code":"11250","city":"Beograd ","municipality":"\u010cukarica","latitude":"44.68851","longitude":"20.43772","created_at":"2020-12-19T08:16:34.000000Z","updated_at":"2020-12-19T10:01:23.000000Z"},{"id":6455,"name":"Mozzart kladionica","address":"Radni\u010dka 59\u00a0","postal_code":"11030","city":"Beograd ","municipality":"\u010cukarica","latitude":"44.78995","longitude":"20.42243","created_at":"2020-12-19T08:16:34.000000Z","updated_at":"2020-12-19T10:39:00.000000Z"},{"id":6462,"name":"Mozzart kladionica","address":"Ilije Stojadinovi\u0107a 16\u00a0","postal_code":"11030","city":"Beograd ","municipality":"\u010cukarica","latitude":"44.74907","longitude":"20.42996","created_at":"2020-12-19T08:16:38.000000Z","updated_at":"2020-12-19T10:01:26.000000Z"},{"id":6463,"name":"Mozzart kladionica","address":"Prvomajska 10\/P\u00a0","postal_code":"11080","city":"Beograd ","municipality":"Zemun","latitude":"44.84124","longitude":"20.39212","created_at":"2020-12-19T08:16:38.000000Z","updated_at":"2020-12-19T10:02:17.000000Z"},{"id":6467,"name":"Mozzart kladionica","address":"Sremskih boraca 4\/B\u00a0","postal_code":"11080","city":"Beograd ","municipality":"Zemun","latitude":"44.84717","longitude":"20.38013","created_at":"2020-12-19T08:16:40.000000Z","updated_at":"2020-12-19T10:02:19.000000Z"},{"id":6468,"name":"Mozzart kladionica","address":"Vi\u0161nji\u010dka 168\/A\u00a0","postal_code":"11060","city":"Beograd ","municipality":"Palilula","latitude":"44.82221","longitude":"20.53796","created_at":"2020-12-19T08:16:41.000000Z","updated_at":"2020-12-19T10:02:19.000000Z"},{"id":6469,"name":"Mozzart kladionica","address":"Zrenjaninski put 155\/V\u00a0","postal_code":"11211","city":"Beograd ","municipality":"Bor\u010da","latitude":"44.88673","longitude":"20.46078","created_at":"2020-12-19T08:16:41.000000Z","updated_at":"2020-12-19T10:02:20.000000Z"},{"id":6470,"name":"Mozzart kladionica","address":"Darinke Radovi\u0107 31\u00a0","postal_code":"11250","city":"Beograd ","municipality":"\u010cukarica","latitude":"44.73059","longitude":"20.38343","created_at":"2020-12-19T08:16:42.000000Z","updated_at":"2020-12-19T10:02:20.000000Z"},{"id":6471,"name":"Mozzart kladionica","address":"Podavalska 58\u00a0","postal_code":"11231","city":"Beograd ","municipality":"Rakovica","latitude":"44.71471","longitude":"20.45953","created_at":"2020-12-19T08:16:42.000000Z","updated_at":"2020-12-19T10:02:21.000000Z"},{"id":6472,"name":"Mozzart kladionica","address":"Vidikova\u010dki venac 116\u00a0","postal_code":"11090","city":"Beograd ","municipality":"Rakovica","latitude":"44.7373","longitude":"20.41895","created_at":"2020-12-19T08:16:43.000000Z","updated_at":"2020-12-19T10:02:21.000000Z"},{"id":6474,"name":"Mozzart kladionica","address":"Vojvode Stepe 244\u00a0","postal_code":"11221","city":"Beograd ","municipality":"Vo\u017edovac","latitude":"44.76993","longitude":"20.47836","created_at":"2020-12-19T08:16:44.000000Z","updated_at":"2020-12-19T10:02:22.000000Z"},{"id":6477,"name":"Mozzart kladionica","address":"Vitezova Kara\u0111or\u0111eve zvezde 31\u00a0","postal_code":"11160","city":"Beograd ","municipality":"Zvezdara","latitude":"44.79263","longitude":"20.52377","created_at":"2020-12-19T08:16:45.000000Z","updated_at":"2020-12-19T10:02:23.000000Z"},{"id":6478,"name":"Mozzart kladionica","address":"Belo vrelo 30\u00a0","postal_code":"11147","city":"Beograd ","municipality":"\u010cukarica","latitude":"44.75036","longitude":"20.408","created_at":"2020-12-19T08:16:46.000000Z","updated_at":"2020-12-19T10:02:24.000000Z"},{"id":6480,"name":"Mozzart kladionica","address":"Srpskog Husarskog puka 115\/A\u00a0","postal_code":"11213","city":"Beograd ","municipality":"Padinska Skela","latitude":"44.9371","longitude":"20.43378","created_at":"2020-12-19T08:16:47.000000Z","updated_at":"2020-12-19T10:30:36.000000Z"},{"id":6482,"name":"Mozzart kladionica","address":"Lole Ribara 152\/B\u00a0","postal_code":"11000","city":"Beograd ","municipality":"\u010cukarica","latitude":"44.73487","longitude":"20.37866","created_at":"2020-12-19T08:16:48.000000Z","updated_at":"2020-12-19T10:02:26.000000Z"},{"id":6483,"name":"Mozzart kladionica","address":"Zrenjaninski put 121\/A\u00a0","postal_code":"11210","city":"Beograd ","municipality":"Bor\u010da","latitude":"44.86954","longitude":"20.47248","created_at":"2020-12-19T08:16:48.000000Z","updated_at":"2020-12-19T10:02:26.000000Z"},{"id":6490,"name":"Mozzart kladionica","address":"Zrenjaninski put 62\u00a0","postal_code":"11210","city":"Beograd ","municipality":"Palilula","latitude":"44.84641","longitude":"20.48876","created_at":"2020-12-19T08:16:52.000000Z","updated_at":"2020-12-19T10:02:29.000000Z"},{"id":6493,"name":"Mozzart kladionica","address":"Klare Cetkin 12\u00a0","postal_code":"11080","city":"Beograd ","municipality":"Zemun","latitude":"44.8314","longitude":"20.41713","created_at":"2020-12-19T08:16:53.000000Z","updated_at":"2020-12-19T10:02:31.000000Z"},{"id":6494,"name":"Mozzart kladionica","address":"\u0160panskih boraca bb\u00a0","postal_code":"11070","city":"Beograd ","municipality":"Novi Beograd","latitude":"44.81486","longitude":"20.41985","created_at":"2020-12-19T08:16:54.000000Z","updated_at":"2020-12-19T10:39:00.000000Z"},{"id":6495,"name":"Mozzart kladionica","address":"Vojvo\u0111anska 112\u00a0","postal_code":"11271","city":"Beograd ","municipality":"Sur\u010din","latitude":"44.79144","longitude":"20.27315","created_at":"2020-12-19T08:16:54.000000Z","updated_at":"2020-12-19T10:02:32.000000Z"},{"id":6499,"name":"Mozzart kladionica","address":"Vojvode Stepe 415\/N\u00a0","postal_code":"11000","city":"Beograd ","municipality":"Vo\u017edovac","latitude":"44.75586","longitude":"20.4897","created_at":"2020-12-19T08:16:56.000000Z","updated_at":"2020-12-19T10:02:33.000000Z"},{"id":6502,"name":"Mozzart kladionica","address":"Kumodra\u0161ka 172\u00a0","postal_code":"11010","city":"Beograd ","municipality":"Vo\u017edovac","latitude":"44.77294","longitude":"20.48188","created_at":"2020-12-19T08:16:58.000000Z","updated_at":"2020-12-19T10:02:35.000000Z"},{"id":6504,"name":"Mozzart kladionica","address":"Vojvode Stepe 345\u00a0","postal_code":"11221","city":"Beograd ","municipality":"Vo\u017edovac","latitude":"44.76274","longitude":"20.48396","created_at":"2020-12-19T08:16:59.000000Z","updated_at":"2020-12-19T10:02:36.000000Z"},{"id":6506,"name":"Mozzart kladionica","address":"Rade Kon\u010dara 35\u00a0","postal_code":"11080","city":"Beograd ","municipality":"Zemun","latitude":"44.84529","longitude":"20.38552","created_at":"2020-12-19T08:17:00.000000Z","updated_at":"2020-12-19T10:02:37.000000Z"},{"id":6507,"name":"Mozzart kladionica","address":"Sur\u010dinska 9\u00a0","postal_code":"11077","city":"Beograd ","municipality":"Novi Beograd","latitude":"44.80765","longitude":"20.35897","created_at":"2020-12-19T08:17:00.000000Z","updated_at":"2020-12-19T10:02:37.000000Z"},{"id":6509,"name":"Mozzart kladionica","address":"Dr Ivana Ribara 61\/B\u00a0","postal_code":"11070","city":"Beograd ","municipality":"Novi Beograd","latitude":"44.80283","longitude":"20.37035","created_at":"2020-12-19T08:17:01.000000Z","updated_at":"2020-12-19T10:02:38.000000Z"},{"id":6510,"name":"Mozzart kladionica","address":"Zrmanjska 29\/lokal 2\u00a0","postal_code":"11030","city":"Beograd ","municipality":"\u010cukarica","latitude":"44.7846","longitude":"20.42031","created_at":"2020-12-19T08:17:02.000000Z","updated_at":"2020-12-19T10:02:39.000000Z"},{"id":6512,"name":"Mozzart kladionica","address":"Nedeljka Gvozdenovi\u0107a 41\u00a0","postal_code":"11070","city":"Beograd ","municipality":"Novi Beograd","latitude":"44.81074","longitude":"20.36864","created_at":"2020-12-19T08:17:03.000000Z","updated_at":"2020-12-19T10:02:40.000000Z"},{"id":6513,"name":"Planet Win 365 sportska kladionica","address":"Kneza Vi\u0161eslava 63\u00a0","postal_code":"11090","city":"Beograd ","municipality":"Rakovica","latitude":"44.74446","longitude":"20.42679","created_at":"2020-12-19T08:17:03.000000Z","updated_at":"2020-12-19T10:02:40.000000Z"},{"id":6515,"name":"Planet Win 365 sportska kladionica","address":"Salvadora Aljendea 40\u00a0","postal_code":"11060","city":"Beograd ","municipality":"Palilula","latitude":"44.80315","longitude":"20.52246","created_at":"2020-12-19T08:17:04.000000Z","updated_at":"2020-12-19T10:02:42.000000Z"},{"id":6516,"name":"Planet Win 365 sportska kladionica","address":"Arhimandrita Gerasima Zeli\u0107a 8\u00a0","postal_code":"11030","city":"Beograd ","municipality":"\u010cukarica","latitude":"44.7548","longitude":"20.4288","created_at":"2020-12-19T08:17:05.000000Z","updated_at":"2020-12-19T10:02:42.000000Z"},{"id":6517,"name":"Planet Win 365 sportska kladionica","address":"Gusinjska 9\u00a0","postal_code":"11050","city":"Beograd ","municipality":"Zvezdara","latitude":"44.78573","longitude":"20.51566","created_at":"2020-12-19T08:17:05.000000Z","updated_at":"2020-12-19T10:02:43.000000Z"},{"id":6518,"name":"Planet Win 365 sportska kladionica","address":"Mihaila Todorovi\u0107a 12\/A\u00a0","postal_code":"11000","city":"Beograd ","municipality":"Zvezdara","latitude":"44.7683","longitude":"20.50413","created_at":"2020-12-19T08:17:06.000000Z","updated_at":"2020-12-19T10:02:43.000000Z"},{"id":6520,"name":"Planet Win 365 sportska kladionica","address":"Bra\u0107e Srni\u0107 23\/A\u00a0","postal_code":"11050","city":"Beograd ","municipality":"Vo\u017edovac","latitude":"44.77261","longitude":"20.50683","created_at":"2020-12-19T08:17:07.000000Z","updated_at":"2020-12-19T10:05:38.000000Z"},{"id":6521,"name":"Planet Win 365 sportska kladionica","address":"Bulevar Crvene Armije 11\/V\u00a0","postal_code":"11070","city":"Beograd ","municipality":"Novi Beograd","latitude":"44.80724","longitude":"20.40604","created_at":"2020-12-19T08:17:07.000000Z","updated_at":"2020-12-19T10:05:38.000000Z"},{"id":6522,"name":"Planet Win 365 sportska kladionica","address":"Bulevar Arsenija \u010carnojevi\u0107a 95\/A\u00a0","postal_code":"11070","city":"Beograd ","municipality":"Novi Beograd","latitude":"44.81207","longitude":"20.41981","created_at":"2020-12-19T08:17:08.000000Z","updated_at":"2020-12-19T10:05:39.000000Z"},{"id":6523,"name":"Planet Win 365 sportska kladionica","address":"Du\u0161ana Vukasovi\u0107a 73\u00a0","postal_code":"11077","city":"Beograd ","municipality":"Novi Beograd","latitude":"44.80457","longitude":"20.37518","created_at":"2020-12-19T08:17:08.000000Z","updated_at":"2020-12-19T10:05:39.000000Z"},{"id":6526,"name":"Planet Win 365 sportska kladionica","address":"Vojislava Ili\u0107a 28\u00a0","postal_code":"11050","city":"Beograd ","municipality":"Vo\u017edovac","latitude":"44.78155","longitude":"20.50196","created_at":"2020-12-19T08:17:10.000000Z","updated_at":"2020-12-19T10:39:00.000000Z"},{"id":6529,"name":"Planet Win 365 sportska kladionica","address":"Partizanske avijacije 8\u00a0","postal_code":"11077","city":"Beograd ","municipality":"Novi Beograd","latitude":"44.82079","longitude":"20.38671","created_at":"2020-12-19T08:17:11.000000Z","updated_at":"2020-12-19T10:05:42.000000Z"},{"id":6532,"name":"Planet Win 365 sportska kladionica","address":"Jurija Gagarina 31\/B\u00a0","postal_code":"11070","city":"Beograd ","municipality":"Novi Beograd","latitude":"44.80345","longitude":"20.39715","created_at":"2020-12-19T08:17:13.000000Z","updated_at":"2020-12-19T10:05:43.000000Z"},{"id":6533,"name":"Planet Win 365 sportska kladionica","address":"Gandijeva 152\u00a0","postal_code":"11077","city":"Beograd ","municipality":"Novi Beograd","latitude":"44.80058","longitude":"20.38847","created_at":"2020-12-19T08:17:13.000000Z","updated_at":"2020-12-19T10:05:43.000000Z"},{"id":6534,"name":"Planet Win 365 sportska kladionica","address":"Bulevar Zorana \u0110in\u0111i\u0107a 67\u00a0","postal_code":"11070","city":"Beograd ","municipality":"Novi Beograd","latitude":"44.81634","longitude":"20.42001","created_at":"2020-12-19T08:17:14.000000Z","updated_at":"2020-12-19T10:05:44.000000Z"},{"id":6535,"name":"Planet Win 365 sportska kladionica","address":"Bulevar Zorana \u0110in\u0111i\u0107a 195\u00a0","postal_code":"11070","city":"Beograd ","municipality":"Novi Beograd","latitude":"44.8236","longitude":"20.40173","created_at":"2020-12-19T08:17:14.000000Z","updated_at":"2020-12-19T10:05:44.000000Z"},{"id":6536,"name":"Planet Win 365 sportska kladionica","address":"Vojvo\u0111anska 93\u00a0","postal_code":"11271","city":"Beograd ","municipality":"Sur\u010din","latitude":"44.79169","longitude":"20.2728","created_at":"2020-12-19T08:17:15.000000Z","updated_at":"2020-12-19T10:05:45.000000Z"},{"id":6537,"name":"Planet Win 365 sportska kladionica","address":"Pavla Vujisi\u0107a 44\u00a0","postal_code":"11283","city":"Beograd ","municipality":"Zemun","latitude":"44.85148","longitude":"20.3501","created_at":"2020-12-19T08:17:15.000000Z","updated_at":"2020-12-19T10:05:45.000000Z"},{"id":6540,"name":"Planet Win 365 sportska kladionica","address":"Cara Nikolaja II 92\u00a0","postal_code":"11118","city":"Beograd ","municipality":"Vra\u010dar","latitude":"44.79811","longitude":"20.48418","created_at":"2020-12-19T08:17:17.000000Z","updated_at":"2020-12-19T10:05:47.000000Z"},{"id":6543,"name":"Planet Win 365 sportska kladionica","address":"Vojvode Stepe 160\u00a0","postal_code":"11221","city":"Beograd ","municipality":"Vo\u017edovac","latitude":"44.77536","longitude":"20.47503","created_at":"2020-12-19T08:17:18.000000Z","updated_at":"2020-12-19T10:05:48.000000Z"},{"id":6548,"name":"Planet Win 365 sportska kladionica","address":"Ustani\u010dka 128\/B\u00a0","postal_code":"11050","city":"Beograd ","municipality":"Vo\u017edovac","latitude":"44.7837","longitude":"20.49326","created_at":"2020-12-19T08:17:21.000000Z","updated_at":"2020-12-19T10:05:50.000000Z"},{"id":6550,"name":"Planet Win 365 sportska kladionica","address":"Bulevar kralja Aleksandra 181\u00a0","postal_code":"11160","city":"Beograd ","municipality":"Zvezdara","latitude":"44.79857","longitude":"20.49232","created_at":"2020-12-19T08:17:22.000000Z","updated_at":"2020-12-19T10:05:51.000000Z"},{"id":6553,"name":"Planet Win 365 sportska kladionica","address":"Cviji\u0107eva 39\u00a0","postal_code":"11120","city":"Beograd ","municipality":"Palilula","latitude":"44.81544","longitude":"20.47754","created_at":"2020-12-19T08:17:23.000000Z","updated_at":"2020-12-19T10:05:53.000000Z"},{"id":6556,"name":"Planet Win 365 sportska kladionica","address":"Sarajevska 60\u00a0","postal_code":"11000","city":"Beograd ","municipality":"Savski Venac","latitude":"44.80158","longitude":"20.45239","created_at":"2020-12-19T08:17:25.000000Z","updated_at":"2020-12-19T10:05:54.000000Z"},{"id":6557,"name":"Planet Win 365 sportska kladionica","address":"Majora Zorana Radosavljevi\u0107a 226\/B\u00a0","postal_code":"11080","city":"Beograd ","municipality":"Zemun","latitude":"44.89596","longitude":"20.29321","created_at":"2020-12-19T08:17:25.000000Z","updated_at":"2020-12-19T10:05:54.000000Z"},{"id":6559,"name":"Planet Win 365 sportska kladionica","address":"Bratstva i jedinstva 48\u00a0","postal_code":"11211","city":"Beograd ","municipality":"Bor\u010da","latitude":"44.88102","longitude":"20.45291","created_at":"2020-12-19T08:17:26.000000Z","updated_at":"2020-12-19T10:05:55.000000Z"},{"id":6560,"name":"Planet Win 365 sportska kladionica","address":"Blagoja Parovi\u0107a 23\/A\u00a0","postal_code":"11030","city":"Beograd ","municipality":"\u010cukarica","latitude":"44.7711","longitude":"20.41749","created_at":"2020-12-19T08:17:27.000000Z","updated_at":"2020-12-19T10:05:56.000000Z"},{"id":6561,"name":"Planet Win 365 sportska kladionica","address":"Radni\u010dka 63\/A\u00a0","postal_code":"11000","city":"Beograd ","municipality":"\u010cukarica","latitude":"44.7836","longitude":"20.41292","created_at":"2020-12-19T08:17:27.000000Z","updated_at":"2020-12-19T10:05:56.000000Z"},{"id":6563,"name":"Planet Win 365 sportska kladionica","address":"Stojana Mati\u0107a 51\u00a0","postal_code":"11000","city":"Beograd ","municipality":"\u010cukarica","latitude":"44.75057","longitude":"20.41619","created_at":"2020-12-19T08:17:28.000000Z","updated_at":"2020-12-19T10:05:57.000000Z"},{"id":6564,"name":"Planet Win 365 sportska kladionica","address":"Vodovodska 142\u00a0","postal_code":"11147","city":"Beograd ","municipality":"\u010cukarica","latitude":"44.74194","longitude":"20.39419","created_at":"2020-12-19T08:17:29.000000Z","updated_at":"2020-12-19T10:39:01.000000Z"},{"id":6565,"name":"Planet Win 365 sportska kladionica","address":"Ratka Mitrovi\u0107a 152\u00a0","postal_code":"11030","city":"Beograd ","municipality":"\u010cukarica","latitude":"44.74915","longitude":"20.42849","created_at":"2020-12-19T08:17:29.000000Z","updated_at":"2020-12-19T10:05:58.000000Z"},{"id":6567,"name":"Planet Win 365 sportska kladionica","address":"Slavka Miljkovi\u0107a 27\u00a0","postal_code":"11231","city":"Beograd ","municipality":"Rakovica","latitude":"44.71286","longitude":"20.45693","created_at":"2020-12-19T08:17:30.000000Z","updated_at":"2020-12-19T10:05:59.000000Z"},{"id":6569,"name":"Planet Win 365 sportska kladionica","address":"Ilije Babi\u0107a 2\/A\u00a0","postal_code":"11260","city":"Beograd ","municipality":"Umka","latitude":"44.68135","longitude":"20.30742","created_at":"2020-12-19T08:17:31.000000Z","updated_at":"2020-12-19T10:06:00.000000Z"},{"id":6571,"name":"Soccer sportska kladionica","address":"Vojvode Stepe 148\u00a0","postal_code":"11221","city":"Beograd ","municipality":"Vo\u017edovac","latitude":"44.77635","longitude":"20.47464","created_at":"2020-12-19T08:17:32.000000Z","updated_at":"2020-12-19T10:06:00.000000Z"},{"id":6574,"name":"Soccer sportska kladionica","address":"Mile\u0161evska 65\u00a0","postal_code":"11118","city":"Beograd ","municipality":"Vra\u010dar","latitude":"44.79833","longitude":"20.48449","created_at":"2020-12-19T08:17:34.000000Z","updated_at":"2020-12-19T10:06:02.000000Z"},{"id":6575,"name":"Soccer sportska kladionica","address":"Bulevar kralja Aleksandra 356\u00a0","postal_code":"11160","city":"Beograd ","municipality":"Zvezdara","latitude":"44.79303","longitude":"20.50462","created_at":"2020-12-19T08:17:34.000000Z","updated_at":"2020-12-19T10:06:02.000000Z"},{"id":6579,"name":"Soccer sportska kladionica","address":"Koste Na\u0111a 10\/V\u00a0","postal_code":"11000","city":"Beograd ","municipality":"Zvezdara","latitude":"44.79585","longitude":"20.53502","created_at":"2020-12-19T08:17:36.000000Z","updated_at":"2020-12-19T10:06:26.000000Z"},{"id":6580,"name":"Soccer sportska kladionica","address":"Mirijevski bulevar 11\/A\u00a0","postal_code":"11000","city":"Beograd ","municipality":"Palilula","latitude":"44.80542","longitude":"20.52509","created_at":"2020-12-19T08:17:37.000000Z","updated_at":"2020-12-19T10:06:26.000000Z"},{"id":6583,"name":"Soccer sportska kladionica","address":"Vojni put 1. 574\/B\u00a0","postal_code":"11080","city":"Beograd ","municipality":"Zemun","latitude":"44.84326","longitude":"20.3731","created_at":"2020-12-19T08:17:38.000000Z","updated_at":"2020-12-19T10:39:02.000000Z"},{"id":6584,"name":"Soccer sportska kladionica","address":"Save Kova\u010devi\u0107a 2\/A\u00a0","postal_code":"11306","city":"Beograd ","municipality":"Grocka","latitude":"44.76601","longitude":"20.5605","created_at":"2020-12-19T08:17:39.000000Z","updated_at":"2020-12-19T10:06:28.000000Z"},{"id":6585,"name":"Soccer sportska kladionica","address":"Majora Zorana Radosavljevi\u0107a 224\/A\u00a0","postal_code":"11273","city":"Beograd ","municipality":"Zemun","latitude":"44.89606","longitude":"20.29299","created_at":"2020-12-19T08:17:39.000000Z","updated_at":"2020-12-19T10:06:29.000000Z"},{"id":6586,"name":"Soccer sportska kladionica","address":"Carice Jelene 68\u00a0","postal_code":"11273","city":"Beograd ","municipality":"Zemun","latitude":"44.90272","longitude":"20.27037","created_at":"2020-12-19T08:17:40.000000Z","updated_at":"2020-12-19T10:06:29.000000Z"},{"id":6587,"name":"Soccer sportska kladionica","address":"Kara\u0111or\u0111ev trg 16\u00a0","postal_code":"11080","city":"Beograd ","municipality":"Zemun","latitude":"44.83698","longitude":"20.4172","created_at":"2020-12-19T08:17:40.000000Z","updated_at":"2020-12-19T10:06:29.000000Z"},{"id":6588,"name":"Soccer sportska kladionica","address":"Prve pruge 17\u00a0","postal_code":"11080","city":"Beograd ","municipality":"Zemun","latitude":"44.83548","longitude":"20.41274","created_at":"2020-12-19T08:17:41.000000Z","updated_at":"2020-12-19T10:06:30.000000Z"},{"id":6590,"name":"Soccer sportska kladionica","address":"Prvomajska 36\/D\u00a0","postal_code":"11080","city":"Beograd ","municipality":"Zemun","latitude":"44.8415","longitude":"20.39001","created_at":"2020-12-19T08:17:42.000000Z","updated_at":"2020-12-19T10:06:31.000000Z"},{"id":6592,"name":"Soccer sportska kladionica","address":"Dr Ivana Ribara 91\u00a0","postal_code":"11077","city":"Beograd ","municipality":"Novi Beograd","latitude":"44.80155","longitude":"20.37039","created_at":"2020-12-19T08:17:43.000000Z","updated_at":"2020-12-19T10:06:32.000000Z"},{"id":6594,"name":"Soccer sportska kladionica","address":"Jurija Gagarina 29\/B\u00a0","postal_code":"11073","city":"Beograd ","municipality":"Novi Beograd","latitude":"44.80307","longitude":"20.3983","created_at":"2020-12-19T08:17:44.000000Z","updated_at":"2020-12-19T10:06:33.000000Z"},{"id":6595,"name":"Soccer sportska kladionica","address":"Bratstva i jedinstva 30\/V\u00a0","postal_code":"11211","city":"Beograd ","municipality":"Bor\u010da","latitude":"44.88272","longitude":"20.45468","created_at":"2020-12-19T08:17:44.000000Z","updated_at":"2020-12-19T10:06:33.000000Z"},{"id":6596,"name":"Soccer sportska kladionica","address":"Zrenjaninski put 148\u00a0","postal_code":"11211","city":"Beograd ","municipality":"Bor\u010da","latitude":"44.88191","longitude":"20.46476","created_at":"2020-12-19T08:17:45.000000Z","updated_at":"2020-12-19T10:06:33.000000Z"},{"id":6597,"name":"Soccer sportska kladionica","address":"Dr Milutina Ivkovi\u0107a bb\u00a0","postal_code":"11000","city":"Beograd ","municipality":"Savski Venac","latitude":"44.78768","longitude":"20.46137","created_at":"2020-12-19T08:17:45.000000Z","updated_at":"2020-12-19T10:39:02.000000Z"},{"id":6599,"name":"Soccer sportska kladionica","address":"Kosmajska 60\u00a0","postal_code":"11030","city":"Beograd ","municipality":"\u010cukarica","latitude":"44.74871","longitude":"20.41671","created_at":"2020-12-19T08:17:46.000000Z","updated_at":"2020-12-19T10:06:35.000000Z"},{"id":6600,"name":"Soccer sportska kladionica","address":"Ratka Mitrovi\u0107a 94\u00a0","postal_code":"11030","city":"Beograd ","municipality":"\u010cukarica","latitude":"44.75483","longitude":"20.42406","created_at":"2020-12-19T08:17:47.000000Z","updated_at":"2020-12-19T10:06:35.000000Z"},{"id":6603,"name":"Soccer sportska kladionica","address":"Kneza Vi\u0161eslava 140\u00a0","postal_code":"11000","city":"Beograd ","municipality":"Rakovica","latitude":"44.74998","longitude":"20.43288","created_at":"2020-12-19T08:17:48.000000Z","updated_at":"2020-12-19T10:06:36.000000Z"},{"id":6604,"name":"Soccer sportska kladionica","address":"11. kraji\u0161ke divizije 52\/B\u00a0","postal_code":"11000","city":"Beograd ","municipality":"Rakovica","latitude":"44.72166","longitude":"20.43024","created_at":"2020-12-19T08:17:49.000000Z","updated_at":"2020-12-19T10:06:37.000000Z"},{"id":6605,"name":"Soccer sportska kladionica","address":"Kneza Vi\u0161eslava 63\u00a0","postal_code":"11000","city":"Beograd ","municipality":"Rakovica","latitude":"44.74446","longitude":"20.42679","created_at":"2020-12-19T08:17:49.000000Z","updated_at":"2020-12-19T10:06:37.000000Z"},{"id":6607,"name":"Soccer sportska kladionica","address":"Podavalska 65\/B\u00a0","postal_code":"11231","city":"Beograd ","municipality":"Rakovica","latitude":"44.71458","longitude":"20.46069","created_at":"2020-12-19T08:17:50.000000Z","updated_at":"2020-12-19T10:06:38.000000Z"},{"id":6611,"name":"Soccer sportska kladionica","address":"Vojvo\u0111anska 47\u00a0","postal_code":"11271","city":"Beograd ","municipality":"Sur\u010din","latitude":"44.79042","longitude":"20.26631","created_at":"2020-12-19T08:17:52.000000Z","updated_at":"2020-12-19T10:06:40.000000Z"},{"id":6615,"name":"Soccer sportska kladionica","address":"Gandijeva 148\/3\u00a0","postal_code":"11070","city":"Beograd ","municipality":"Novi Beograd","latitude":"44.80092","longitude":"20.38831","created_at":"2020-12-19T08:17:54.000000Z","updated_at":"2020-12-19T10:06:42.000000Z"},{"id":6616,"name":"Soccer sportska kladionica","address":"Zrenjaninski put 27\/A\u00a0","postal_code":"11210","city":"Beograd ","municipality":"Palilula","latitude":"44.84593","longitude":"20.48777","created_at":"2020-12-19T08:17:55.000000Z","updated_at":"2020-12-19T10:06:42.000000Z"},{"id":6619,"name":"Soccer sportska kladionica","address":"Ustani\u010dka 182\/V\u00a0","postal_code":"11050","city":"Beograd ","municipality":"Vo\u017edovac","latitude":"44.78339","longitude":"20.50128","created_at":"2020-12-19T08:17:56.000000Z","updated_at":"2020-12-19T10:39:04.000000Z"},{"id":6624,"name":"Soccer sportska kladionica","address":"Bulevar patrijarha Germana 232\u00a0","postal_code":"11223","city":"Beograd ","municipality":"Beli Potok","latitude":"44.70801","longitude":"20.50799","created_at":"2020-12-19T08:17:59.000000Z","updated_at":"2020-12-19T10:06:46.000000Z"},{"id":6628,"name":"Soccer sportska kladionica","address":"Dragoslava Srejovi\u0107a 6\/22\u00a0","postal_code":"11160","city":"Beograd ","municipality":"Palilula","latitude":"44.81571","longitude":"20.48963","created_at":"2020-12-19T08:18:01.000000Z","updated_at":"2020-12-19T10:06:47.000000Z"},{"id":6630,"name":"Soccer sportska kladionica","address":"Dimitrija Tucovi\u0107a 19\u00a0","postal_code":"11000","city":"Beograd ","municipality":"Zvezdara","latitude":"44.80205","longitude":"20.49126","created_at":"2020-12-19T08:18:02.000000Z","updated_at":"2020-12-19T10:06:48.000000Z"},{"id":6634,"name":"Soccer sportska kladionica","address":"Sutjeska blok 324\/K\u00a0","postal_code":"11210","city":"Beograd ","municipality":"Palilula","latitude":"44.85119","longitude":"20.46589","created_at":"2020-12-19T08:18:04.000000Z","updated_at":"2020-12-19T10:08:33.000000Z"},{"id":6635,"name":"Soccer sportska kladionica","address":"13. oktobra 33\u00a0","postal_code":"11260","city":"Beograd ","municipality":"Umka","latitude":"44.68116","longitude":"20.30562","created_at":"2020-12-19T08:18:04.000000Z","updated_at":"2020-12-19T10:08:34.000000Z"},{"id":6636,"name":"Soccer sportska kladionica","address":"Nikole Grulovi\u0107a 9\u00a0","postal_code":"11050","city":"Beograd ","municipality":"Zvezdara","latitude":"44.75909","longitude":"20.52521","created_at":"2020-12-19T08:18:05.000000Z","updated_at":"2020-12-19T10:08:34.000000Z"},{"id":6637,"name":"Soccer sportska kladionica","address":"Branislava Nu\u0161i\u0107a 2\/A\u00a0","postal_code":"11351","city":"Beograd ","municipality":"Le\u0161tane","latitude":"44.65878","longitude":"20.19441","created_at":"2020-12-19T08:18:05.000000Z","updated_at":"2020-12-19T10:08:35.000000Z"},{"id":6638,"name":"Soccer sportska kladionica","address":"Lole Ribara 157\u00a0","postal_code":"11250","city":"Beograd ","municipality":"\u010cukarica","latitude":"44.7277","longitude":"20.36849","created_at":"2020-12-19T08:18:06.000000Z","updated_at":"2020-12-19T10:08:35.000000Z"},{"id":6641,"name":"Soccer sportska kladionica","address":"Aleksandra Vojinovi\u0107a 13\u00a0","postal_code":"11231","city":"Beograd ","municipality":"Rakovica","latitude":"44.70554","longitude":"20.45037","created_at":"2020-12-19T08:18:07.000000Z","updated_at":"2020-12-19T10:08:36.000000Z"},{"id":6644,"name":"Soccer sportska kladionica","address":"Bulevar Peka Dap\u010devi\u0107a 374\u00a0","postal_code":"11221","city":"Beograd ","municipality":"Vo\u017edovac","latitude":"44.75948","longitude":"20.49395","created_at":"2020-12-19T08:18:09.000000Z","updated_at":"2020-12-19T10:08:38.000000Z"},{"id":6646,"name":"Sportska kladionica Brazil Bet","address":"Dragoslava Srejovi\u0107a 72\/P\u00a0","postal_code":"11160","city":"Beograd ","municipality":"Palilula","latitude":"44.80214","longitude":"20.5233","created_at":"2020-12-19T08:18:10.000000Z","updated_at":"2020-12-19T10:08:39.000000Z"},{"id":6647,"name":"Sportska kladionica Brazil Bet","address":"Oplena\u010dka 47\u00a0","postal_code":"11090","city":"Beograd ","municipality":"Rakovica","latitude":"44.72513","longitude":"20.42342","created_at":"2020-12-19T08:18:10.000000Z","updated_at":"2020-12-19T10:08:39.000000Z"},{"id":6648,"name":"Sportska kladionica Pinn Bet","address":"Bulevar Mihajla Pupina 20\/H\u00a0","postal_code":"11070","city":"Beograd ","municipality":"Novi Beograd","latitude":"44.81432","longitude":"20.43921","created_at":"2020-12-19T08:18:11.000000Z","updated_at":"2020-12-19T10:39:05.000000Z"},{"id":6652,"name":"Sportska kladionica Pinn Bet","address":"\u010celebi\u0107ka 13\u00a0","postal_code":"11090","city":"Beograd ","municipality":"Rakovica","latitude":"44.7487","longitude":"20.45046","created_at":"2020-12-19T08:18:13.000000Z","updated_at":"2020-12-19T10:08:41.000000Z"},{"id":6655,"name":"Sportska kladionica Pinn Bet","address":"Bulevar Zorana \u0110in\u0111i\u0107a 197\/I\u00a0","postal_code":"11070","city":"Beograd ","municipality":"Novi Beograd","latitude":"44.8238","longitude":"20.40165","created_at":"2020-12-19T08:18:14.000000Z","updated_at":"2020-12-19T10:08:42.000000Z"},{"id":6656,"name":"Sportska kladionica Pinn Bet","address":"Vojvode Stepe 227\u00a0","postal_code":"11010","city":"Beograd ","municipality":"Vo\u017edovac","latitude":"44.77243","longitude":"20.47768","created_at":"2020-12-19T08:18:15.000000Z","updated_at":"2020-12-19T10:08:43.000000Z"},{"id":6657,"name":"Sportska kladionica Pinn Bet","address":"Kru\u0161eva\u010dka 33\u00a0","postal_code":"11050","city":"Beograd ","municipality":"Vo\u017edovac","latitude":"44.78773","longitude":"20.48372","created_at":"2020-12-19T08:18:15.000000Z","updated_at":"2020-12-19T10:08:43.000000Z"},{"id":6658,"name":"Sportska kladionica Pinn Bet","address":"Radni\u010dka 63\/A\u00a0","postal_code":"11030","city":"Beograd ","municipality":"\u010cukarica","latitude":"44.7836","longitude":"20.41292","created_at":"2020-12-19T08:18:16.000000Z","updated_at":"2020-12-19T10:08:44.000000Z"},{"id":6659,"name":"Sportska kladionica Pinn Bet","address":"Ratka Mitrovi\u0107a 130\u00a0","postal_code":"11030","city":"Beograd ","municipality":"\u010cukarica","latitude":"44.7508","longitude":"20.42681","created_at":"2020-12-19T08:18:16.000000Z","updated_at":"2020-12-19T10:08:44.000000Z"},{"id":6660,"name":"Sportska kladionica Pinn Bet","address":"Trebevi\u0107ka 2\u00a0","postal_code":"11030","city":"Beograd ","municipality":"\u010cukarica","latitude":"44.77008","longitude":"20.41418","created_at":"2020-12-19T08:18:17.000000Z","updated_at":"2020-12-19T10:08:45.000000Z"},{"id":6661,"name":"Sportska kladionica Pinn Bet","address":"Po\u017ee\u0161ka 93\u00a0","postal_code":"11030","city":"Beograd ","municipality":"\u010cukarica","latitude":"44.77186","longitude":"20.41461","created_at":"2020-12-19T08:18:17.000000Z","updated_at":"2020-12-19T10:08:45.000000Z"},{"id":6665,"name":"Ta\u0161 kladionica","address":"Vojvode Stepe 235\u00a0","postal_code":"11221","city":"Beograd ","municipality":"Vo\u017edovac","latitude":"44.77171","longitude":"20.47809","created_at":"2020-12-19T08:18:19.000000Z","updated_at":"2020-12-19T10:08:47.000000Z"},{"id":6666,"name":"Ta\u0161 kladionica","address":"Kneza Vi\u0161eslava 31\/A\u00a0","postal_code":"11090","city":"Beograd ","municipality":"Rakovica","latitude":"44.74807","longitude":"20.4309","created_at":"2020-12-19T08:18:20.000000Z","updated_at":"2020-12-19T10:08:47.000000Z"},{"id":6669,"name":"Ta\u0161 kladionica","address":"Bra\u0107e Jerkovi\u0107a 201\/E\u00a0","postal_code":"11010","city":"Beograd ","municipality":"Vo\u017edovac","latitude":"44.76506","longitude":"20.49892","created_at":"2020-12-19T08:18:21.000000Z","updated_at":"2020-12-19T10:08:48.000000Z"},{"id":6671,"name":"Ta\u0161 kladionica","address":"Makenzijeva 85\u00a0","postal_code":"11118","city":"Beograd ","municipality":"Vra\u010dar","latitude":"44.79799","longitude":"20.4742","created_at":"2020-12-19T08:18:22.000000Z","updated_at":"2020-12-19T10:08:49.000000Z"},{"id":6672,"name":"Ta\u0161 kladionica","address":"Bulevar kralja Aleksandra 95\u00a0","postal_code":"11160","city":"Beograd ","municipality":"Zvezdara","latitude":"44.80241","longitude":"20.48332","created_at":"2020-12-19T08:18:23.000000Z","updated_at":"2020-12-19T10:08:49.000000Z"},{"id":6675,"name":"Ta\u0161 kladionica","address":"Pe\u0111e Milosavljevi\u0107a 9\u00a0","postal_code":"11077","city":"Beograd ","municipality":"Novi Beograd","latitude":"44.81782","longitude":"20.37433","created_at":"2020-12-19T08:18:24.000000Z","updated_at":"2020-12-19T10:08:51.000000Z"},{"id":6677,"name":"Ta\u0161 kladionica","address":"Lole Ribara 157\u00a0","postal_code":"11250","city":"Beograd ","municipality":"\u010cukarica","latitude":"44.7277","longitude":"20.36849","created_at":"2020-12-19T08:18:25.000000Z","updated_at":"2020-12-19T10:08:52.000000Z"},{"id":6679,"name":"Ta\u0161 kladionica","address":"Tri\u0161e Kaclerovi\u0107a 27\/I\u00a0","postal_code":"11010","city":"Beograd ","municipality":"Vo\u017edovac","latitude":"44.78629","longitude":"20.47207","created_at":"2020-12-19T08:18:26.000000Z","updated_at":"2020-12-19T10:08:53.000000Z"},{"id":6681,"name":"Ta\u0161 kladionica","address":"Pra\u0161ka 34\u00a0","postal_code":"11030","city":"Beograd ","municipality":"\u010cukarica","latitude":"44.77223","longitude":"20.41751","created_at":"2020-12-19T08:18:27.000000Z","updated_at":"2020-12-19T10:39:05.000000Z"},{"id":6683,"name":"Ta\u0161 kladionica","address":"Vojislava Ili\u0107a 141\/J\u00a0","postal_code":"11050","city":"Beograd ","municipality":"Vo\u017edovac","latitude":"44.77556","longitude":"20.47444","created_at":"2020-12-19T08:18:28.000000Z","updated_at":"2020-12-19T10:09:10.000000Z"},{"id":6684,"name":"Ta\u0161 kladionica","address":"Vodovodska 10\u00a0","postal_code":"11147","city":"Beograd ","municipality":"\u010cukarica","latitude":"44.74459","longitude":"20.39922","created_at":"2020-12-19T08:18:29.000000Z","updated_at":"2020-12-19T10:09:10.000000Z"},{"id":6686,"name":"Ta\u0161 kladionica","address":"Avalska 188\/B\u00a0","postal_code":"11232","city":"Beograd ","municipality":"Ripanj","latitude":"44.66251","longitude":"20.5073","created_at":"2020-12-19T08:18:30.000000Z","updated_at":"2020-12-19T10:39:06.000000Z"},{"id":6688,"name":"Ta\u0161 kladionica","address":"Vojvode Stepe 195\u00a0","postal_code":"11010","city":"Beograd ","municipality":"Vo\u017edovac","latitude":"44.77407","longitude":"20.47654","created_at":"2020-12-19T08:18:31.000000Z","updated_at":"2020-12-19T10:09:12.000000Z"},{"id":6689,"name":"Ta\u0161 kladionica","address":"Kneza Vi\u0161eslava 136\/lokal 19\u00a0","postal_code":"11090","city":"Beograd ","municipality":"Rakovica","latitude":"44.77563","longitude":"20.42408","created_at":"2020-12-19T08:18:31.000000Z","updated_at":"2020-12-19T10:09:13.000000Z"},{"id":6693,"name":"Ta\u0161 kladionica","address":"Prvomajska 8\u00a0","postal_code":"11080","city":"Beograd ","municipality":"Zemun","latitude":"44.84129","longitude":"20.39416","created_at":"2020-12-19T08:18:33.000000Z","updated_at":"2020-12-19T10:09:14.000000Z"},{"id":6694,"name":"Ta\u0161 kladionica","address":"Ugrinova\u010dka 156\u00a0","postal_code":"11283","city":"Beograd ","municipality":"Zemun","latitude":"44.85036","longitude":"20.38391","created_at":"2020-12-19T08:18:34.000000Z","updated_at":"2020-12-19T10:09:15.000000Z"},{"id":6695,"name":"Ta\u0161 kladionica","address":"Dobanova\u010dki put 48\u00a0","postal_code":"11283","city":"Beograd ","municipality":"Zemun","latitude":"44.84718","longitude":"20.36342","created_at":"2020-12-19T08:18:34.000000Z","updated_at":"2020-12-19T10:09:15.000000Z"},{"id":6696,"name":"ZeroBet sportska kladionica","address":"Bratstva i jedinstva 1\u00a0","postal_code":"11211","city":"Beograd ","municipality":"Bor\u010da","latitude":"44.88735","longitude":"20.46042","created_at":"2020-12-19T08:18:35.000000Z","updated_at":"2020-12-19T10:09:16.000000Z"},{"id":6697,"name":"ZeroBet sportska kladionica","address":"Kraji\u0161ka 70\u00a0","postal_code":"11283","city":"Beograd ","municipality":"Zemun","latitude":"44.84031","longitude":"20.36785","created_at":"2020-12-19T08:18:35.000000Z","updated_at":"2020-12-19T10:09:16.000000Z"},{"id":6701,"name":"Balkan Bet sportska kladionica","address":"Vojvo\u0111anska 77\u00a0","postal_code":"11271","city":"Beograd ","municipality":"Sur\u010din","latitude":"44.79111","longitude":"20.2698","created_at":"2020-12-19T08:22:26.000000Z","updated_at":"2020-12-19T10:09:18.000000Z"},{"id":6702,"name":"Balkan Bet sportska kladionica","address":"Terazije 4\u00a0","postal_code":"11000","city":"Beograd ","municipality":"Stari Grad","latitude":"44.81453","longitude":"20.45998","created_at":"2020-12-19T08:22:26.000000Z","updated_at":"2020-12-19T10:09:18.000000Z"},{"id":6703,"name":"Balkan Bet sportska kladionica","address":"Blagoja Parovi\u0107a 23\u00a0","postal_code":"11030","city":"Beograd ","municipality":"\u010cukarica","latitude":"44.7711","longitude":"20.41749","created_at":"2020-12-19T08:22:26.000000Z","updated_at":"2020-12-19T10:09:19.000000Z"},{"id":6704,"name":"Balkan Bet sportska kladionica","address":"Vodovodska 23\u00a0","postal_code":"11147","city":"Beograd ","municipality":"\u010cukarica","latitude":"44.7443","longitude":"20.39854","created_at":"2020-12-19T08:22:26.000000Z","updated_at":"2020-12-19T10:09:19.000000Z"},{"id":6709,"name":"Balkan Bet sportska kladionica","address":"Kneza Vi\u0161eslava 29\/\u017d\u00a0","postal_code":"11090","city":"Beograd ","municipality":"Rakovica","latitude":"44.7539","longitude":"20.43784","created_at":"2020-12-19T08:22:26.000000Z","updated_at":"2020-12-19T10:09:21.000000Z"},{"id":6716,"name":"Balkan Bet sportska kladionica","address":"Bulevar kralja Aleksandra 119\u00a0","postal_code":"11160","city":"Beograd ","municipality":"Zvezdara","latitude":"44.80144","longitude":"20.48547","created_at":"2020-12-19T08:22:26.000000Z","updated_at":"2020-12-19T10:09:24.000000Z"},{"id":6719,"name":"Balkan Bet sportska kladionica","address":"To\u0161in bunar 143\/B\u00a0","postal_code":"11080","city":"Beograd ","municipality":"Zemun","latitude":"44.82228","longitude":"20.39831","created_at":"2020-12-19T08:22:26.000000Z","updated_at":"2020-12-19T10:39:06.000000Z"},{"id":6720,"name":"Balkan Bet sportska kladionica","address":"Vojvode Stepe 276\u00a0","postal_code":"11221","city":"Beograd ","municipality":"Vo\u017edovac","latitude":"44.76776","longitude":"20.4798","created_at":"2020-12-19T08:22:26.000000Z","updated_at":"2020-12-19T10:09:26.000000Z"},{"id":6722,"name":"Balkan Bet sportska kladionica","address":"Bulevar Arsenija \u010carnojevi\u0107a 95\u00a0","postal_code":"11070","city":"Beograd ","municipality":"Novi Beograd","latitude":"44.812","longitude":"20.41908","created_at":"2020-12-19T08:22:26.000000Z","updated_at":"2020-12-19T10:09:27.000000Z"},{"id":6725,"name":"Balkan Bet sportska kladionica","address":"Vespu\u010dijeva 34\u00a0","postal_code":"11070","city":"Beograd ","municipality":"Novi Beograd","latitude":"44.81148","longitude":"20.36851","created_at":"2020-12-19T08:22:27.000000Z","updated_at":"2020-12-19T10:09:28.000000Z"},{"id":6728,"name":"Balkan Bet sportska kladionica","address":"Prvomajska 36\/L\u00a0","postal_code":"11080","city":"Beograd ","municipality":"Zemun","latitude":"44.84189","longitude":"20.39051","created_at":"2020-12-19T08:22:27.000000Z","updated_at":"2020-12-19T10:09:29.000000Z"},{"id":6729,"name":"Balkan Bet sportska kladionica","address":"Ivi\u0107eva 2\u00a0","postal_code":"11080","city":"Beograd ","municipality":"Zemun","latitude":"44.84217","longitude":"20.40499","created_at":"2020-12-19T08:22:27.000000Z","updated_at":"2020-12-19T10:10:08.000000Z"},{"id":6731,"name":"Balkan Bet sportska kladionica","address":"Bulevar kralja Aleksandra 156\u00a0","postal_code":"11160","city":"Beograd ","municipality":"Zvezdara","latitude":"44.80182","longitude":"20.48349","created_at":"2020-12-19T08:22:27.000000Z","updated_at":"2020-12-19T10:10:09.000000Z"},{"id":6732,"name":"Balkan Bet sportska kladionica","address":"Ivana Milutinovi\u0107a 57\u00a0","postal_code":"11211","city":"Beograd ","municipality":"Bor\u010da","latitude":"44.87527","longitude":"20.46201","created_at":"2020-12-19T08:22:27.000000Z","updated_at":"2020-12-19T10:10:09.000000Z"},{"id":6734,"name":"Balkan Bet sportska kladionica","address":"Ugrinova\u010dki put 18\u00a0","postal_code":"11080","city":"Beograd ","municipality":"Zemun","latitude":"44.85654","longitude":"20.35439","created_at":"2020-12-19T08:22:27.000000Z","updated_at":"2020-12-19T10:10:10.000000Z"},{"id":6738,"name":"Balkan Bet sportska kladionica","address":"Bratstva i jedinstva 85\u00a0","postal_code":"11211","city":"Beograd ","municipality":"Bor\u010da","latitude":"44.88143","longitude":"20.45382","created_at":"2020-12-19T08:22:27.000000Z","updated_at":"2020-12-19T10:10:12.000000Z"},{"id":6739,"name":"Balkan Bet sportska kladionica","address":"Glavna 40\u00a0","postal_code":"11080","city":"Beograd ","municipality":"Zemun","latitude":"44.84595","longitude":"20.40979","created_at":"2020-12-19T08:22:27.000000Z","updated_at":"2020-12-19T10:10:12.000000Z"},{"id":6740,"name":"Balkan Bet sportska kladionica","address":"Bulevar mar\u0161ala Tolbuhina 27\u00a0","postal_code":"11080","city":"Beograd ","municipality":"Zemun","latitude":"44.83111","longitude":"20.41794","created_at":"2020-12-19T08:22:27.000000Z","updated_at":"2020-12-19T10:39:07.000000Z"},{"id":6741,"name":"Balkan Bet sportska kladionica","address":"Pavla Vujisi\u0107a 65\/A\u00a0","postal_code":"11080","city":"Beograd ","municipality":"Zemun","latitude":"44.85212","longitude":"20.34837","created_at":"2020-12-19T08:22:27.000000Z","updated_at":"2020-12-19T10:10:13.000000Z"},{"id":6743,"name":"Balkan Bet sportska kladionica","address":"Ugrinova\u010dka 212\u00a0","postal_code":"11080","city":"Beograd ","municipality":"Zemun","latitude":"44.84924","longitude":"20.37694","created_at":"2020-12-19T08:22:27.000000Z","updated_at":"2020-12-19T10:10:14.000000Z"},{"id":6745,"name":"Balkan Bet sportska kladionica","address":"Rableova 19\u00a0","postal_code":"11000","city":"Beograd ","municipality":"Zvezdara","latitude":"44.78776","longitude":"20.53435","created_at":"2020-12-19T08:22:27.000000Z","updated_at":"2020-12-19T10:10:15.000000Z"},{"id":6747,"name":"Balkan Bet sportska kladionica","address":"Bra\u0107e Jerkovi\u0107a 134\u00a0","postal_code":"11221","city":"Beograd ","municipality":"Vo\u017edovac","latitude":"44.76731","longitude":"20.50083","created_at":"2020-12-19T08:22:27.000000Z","updated_at":"2020-12-19T10:10:16.000000Z"},{"id":6748,"name":"Balkan Bet sportska kladionica","address":"Majora Zorana Radosavljevi\u0107a 216\/A\u00a0","postal_code":"11273","city":"Beograd ","municipality":"Zemun","latitude":"44.89666","longitude":"20.2922","created_at":"2020-12-19T08:22:27.000000Z","updated_at":"2020-12-19T10:10:16.000000Z"},{"id":6749,"name":"Balkan Bet sportska kladionica","address":"Bra\u0107e Savi\u0107a 2\/E\u00a0","postal_code":"11273","city":"Beograd ","municipality":"Zemun","latitude":"44.89885","longitude":"20.2851","created_at":"2020-12-19T08:22:27.000000Z","updated_at":"2020-12-19T10:10:17.000000Z"},{"id":6751,"name":"Balkan Bet sportska kladionica","address":"Matrozova bb\u00a0","postal_code":"11080","city":"Beograd ","municipality":"Zemun","latitude":"44.89906","longitude":"20.27263","created_at":"2020-12-19T08:22:27.000000Z","updated_at":"2020-12-19T10:39:07.000000Z"},{"id":6753,"name":"Balkan Bet sportska kladionica","address":"Ugrinova\u010dka 9\/A\u00a0","postal_code":"11272","city":"Beograd ","municipality":"Dobanovci","latitude":"44.8478","longitude":"20.37205","created_at":"2020-12-19T08:22:27.000000Z","updated_at":"2020-12-19T10:39:08.000000Z"},{"id":6757,"name":"Balkan Bet sportska kladionica","address":"Sur\u010dinska 227\u00a0","postal_code":"11070","city":"Beograd ","municipality":"Novi Beograd","latitude":"44.80548","longitude":"20.34952","created_at":"2020-12-19T08:22:27.000000Z","updated_at":"2020-12-19T10:10:21.000000Z"},{"id":6758,"name":"Balkan Bet sportska kladionica","address":"Bulevar Arsenija \u010carnojevi\u0107a 97\u00a0","postal_code":"11070","city":"Beograd ","municipality":"Novi Beograd","latitude":"44.81259","longitude":"20.41861","created_at":"2020-12-19T08:22:27.000000Z","updated_at":"2020-12-19T10:10:21.000000Z"},{"id":6765,"name":"AdmiralBet sportska kladionica","address":"Jurija Gagarina 89\/lokal 354\u00a0","postal_code":"11070","city":"Beograd ","municipality":"Novi Beograd","latitude":"44.80303","longitude":"20.39302","created_at":"2020-12-19T08:22:28.000000Z","updated_at":"2020-12-19T10:10:24.000000Z"},{"id":6767,"name":"AdmiralBet sportska kladionica","address":"Bulevar Arsenija \u010carnojevi\u0107a 95\/B\u00a0","postal_code":"11070","city":"Beograd ","municipality":"Novi Beograd","latitude":"44.812","longitude":"20.41908","created_at":"2020-12-19T08:22:28.000000Z","updated_at":"2020-12-19T10:10:25.000000Z"},{"id":6770,"name":"AdmiralBet sportska kladionica","address":"Bulevar kralja Aleksandra 156\u00a0","postal_code":"11160","city":"Beograd ","municipality":"Zvezdara","latitude":"44.80182","longitude":"20.48349","created_at":"2020-12-19T08:22:28.000000Z","updated_at":"2020-12-19T10:10:26.000000Z"},{"id":6773,"name":"AdmiralBet sportska kladionica","address":"Vi\u0161nji\u010dka 91\/D\u00a0","postal_code":"11000","city":"Beograd ","municipality":"Palilula","latitude":"44.81816","longitude":"20.52239","created_at":"2020-12-19T08:22:28.000000Z","updated_at":"2020-12-19T10:10:43.000000Z"},{"id":6774,"name":"AdmiralBet sportska kladionica","address":"Rableova 19\/G\u00a0","postal_code":"11000","city":"Beograd ","municipality":"Zvezdara","latitude":"44.78776","longitude":"20.53435","created_at":"2020-12-19T08:22:28.000000Z","updated_at":"2020-12-19T10:39:09.000000Z"},{"id":6776,"name":"AdmiralBet sportska kladionica","address":"Ratka Mitrovi\u0107a 159\u00a0","postal_code":"11030","city":"Beograd ","municipality":"\u010cukarica","latitude":"44.75091","longitude":"20.42718","created_at":"2020-12-19T08:22:28.000000Z","updated_at":"2020-12-19T10:10:44.000000Z"},{"id":6777,"name":"AdmiralBet sportska kladionica","address":"Vodovodska 138\u00a0","postal_code":"11147","city":"Beograd ","municipality":"\u010cukarica","latitude":"44.74434","longitude":"20.38826","created_at":"2020-12-19T08:22:28.000000Z","updated_at":"2020-12-19T10:39:10.000000Z"},{"id":6778,"name":"AdmiralBet sportska kladionica","address":"Bra\u0107e Srni\u0107 23\/A\u00a0","postal_code":"11050","city":"Beograd ","municipality":"Vo\u017edovac","latitude":"44.77261","longitude":"20.50683","created_at":"2020-12-19T08:22:28.000000Z","updated_at":"2020-12-19T10:10:45.000000Z"},{"id":6781,"name":"AdmiralBet sportska kladionica","address":"Terazije 13\u00a0","postal_code":"11103","city":"Beograd ","municipality":"Stari Grad","latitude":"44.81405","longitude":"20.46106","created_at":"2020-12-19T08:22:28.000000Z","updated_at":"2020-12-19T10:10:46.000000Z"},{"id":6782,"name":"AdmiralBet sportska kladionica","address":"Beogradska 22\u00a0","postal_code":"11253","city":"Beograd ","municipality":"Srem\u010dica","latitude":"44.68615","longitude":"20.38206","created_at":"2020-12-19T08:22:28.000000Z","updated_at":"2020-12-19T10:10:47.000000Z"},{"id":6786,"name":"AdmiralBet sportska kladionica","address":"Ratka Mitrovi\u0107a 154\u00a0","postal_code":"11030","city":"Beograd ","municipality":"\u010cukarica","latitude":"44.74901","longitude":"20.42863","created_at":"2020-12-19T08:22:28.000000Z","updated_at":"2020-12-19T10:10:48.000000Z"},{"id":6788,"name":"AdmiralBet sportska kladionica","address":"Stevana Filipovi\u0107a 8\u00a0","postal_code":"11250","city":"Beograd ","municipality":"\u010cukarica","latitude":"44.72356","longitude":"20.36875","created_at":"2020-12-19T08:22:28.000000Z","updated_at":"2020-12-19T10:10:49.000000Z"},{"id":6790,"name":"Meridian sportska kladionica","address":"Cviji\u0107eva 36\u00a0","postal_code":"11000","city":"Beograd ","municipality":"Palilula","latitude":"44.81608","longitude":"20.47686","created_at":"2020-12-19T08:22:28.000000Z","updated_at":"2020-12-19T10:10:50.000000Z"},{"id":6791,"name":"Meridian sportska kladionica","address":"\u010celebi\u0107ka 11\u00a0","postal_code":"11090","city":"Beograd ","municipality":"Rakovica","latitude":"44.74885","longitude":"20.45046","created_at":"2020-12-19T08:22:28.000000Z","updated_at":"2020-12-19T10:10:50.000000Z"},{"id":6793,"name":"Meridian sportska kladionica","address":"Bratstva i jedinstva 76\/lokal 2\u00a0","postal_code":"11211","city":"Beograd ","municipality":"Bor\u010da","latitude":"44.87941","longitude":"20.45151","created_at":"2020-12-19T08:22:28.000000Z","updated_at":"2020-12-19T10:10:51.000000Z"},{"id":6795,"name":"Meridian sportska kladionica","address":"Jurija Gagarina 227\u00a0","postal_code":"11070","city":"Beograd ","municipality":"Novi Beograd","latitude":"44.7988","longitude":"20.37515","created_at":"2020-12-19T08:22:28.000000Z","updated_at":"2020-12-19T10:10:52.000000Z"},{"id":6796,"name":"Meridian sportska kladionica","address":"Trg republike 10\u00a0","postal_code":"11430","city":"Beograd ","municipality":"Um\u010dari","latitude":"44.66537","longitude":"20.92563","created_at":"2020-12-19T08:22:29.000000Z","updated_at":"2020-12-19T10:10:53.000000Z"},{"id":6799,"name":"Meridian sportska kladionica","address":"Glavna 46\u00a0","postal_code":"11080","city":"Beograd ","municipality":"Zemun","latitude":"44.84618","longitude":"20.40954","created_at":"2020-12-19T08:22:29.000000Z","updated_at":"2020-12-19T10:10:54.000000Z"},{"id":6800,"name":"Meridian sportska kladionica","address":"Vojvode Stepe 152\u00a0","postal_code":"11221","city":"Beograd ","municipality":"Vo\u017edovac","latitude":"44.776","longitude":"20.47479","created_at":"2020-12-19T08:22:29.000000Z","updated_at":"2020-12-19T10:10:54.000000Z"},{"id":6805,"name":"Meridian sportska kladionica","address":"Antifa\u0161isti\u010dke borbe 29\u00a0","postal_code":"11070","city":"Beograd ","municipality":"Novi Beograd","latitude":"44.81257","longitude":"20.42456","created_at":"2020-12-19T08:22:29.000000Z","updated_at":"2020-12-19T10:10:56.000000Z"},{"id":6808,"name":"Meridian sportska kladionica","address":"Gandijeva 5\u00a0","postal_code":"11073","city":"Beograd ","municipality":"Novi Beograd","latitude":"44.81017","longitude":"20.38341","created_at":"2020-12-19T08:22:29.000000Z","updated_at":"2020-12-19T10:10:58.000000Z"},{"id":6809,"name":"Meridian sportska kladionica","address":"Obili\u0107ev venac 10\u00a0","postal_code":"11000","city":"Beograd ","municipality":"Stari Grad","latitude":"44.81608","longitude":"20.45703","created_at":"2020-12-19T08:22:29.000000Z","updated_at":"2020-12-19T10:10:58.000000Z"},{"id":6815,"name":"Meridian sportska kladionica","address":"Ratka Mitrovi\u0107a 181\/A\u00a0","postal_code":"11030","city":"Beograd ","municipality":"\u010cukarica","latitude":"44.74874","longitude":"20.42999","created_at":"2020-12-19T08:22:29.000000Z","updated_at":"2020-12-19T10:11:25.000000Z"},{"id":6816,"name":"Meridian sportska kladionica","address":"Dimitrija Tucovi\u0107a 69\u00a0","postal_code":"11000","city":"Beograd ","municipality":"Zvezdara","latitude":"44.80205","longitude":"20.49126","created_at":"2020-12-19T08:22:29.000000Z","updated_at":"2020-12-19T10:11:25.000000Z"},{"id":6817,"name":"Meridian sportska kladionica","address":"Gandijeva 148\u00a0","postal_code":"11070","city":"Beograd ","municipality":"Novi Beograd","latitude":"44.80092","longitude":"20.38831","created_at":"2020-12-19T08:22:29.000000Z","updated_at":"2020-12-19T10:11:26.000000Z"},{"id":6821,"name":"Meridian sportska kladionica","address":"Bulevar Mihajla Pupina 10\/B\u00a0","postal_code":"11070","city":"Beograd ","municipality":"Novi Beograd","latitude":"44.82195","longitude":"20.4194","created_at":"2020-12-19T08:22:29.000000Z","updated_at":"2020-12-19T10:11:27.000000Z"},{"id":6826,"name":"Meridian sportska kladionica","address":"Jurija Gagarina 14\/\u0110\u00a0","postal_code":"11070","city":"Beograd ","municipality":"Novi Beograd","latitude":"44.80487","longitude":"20.40874","created_at":"2020-12-19T08:22:29.000000Z","updated_at":"2020-12-19T10:11:30.000000Z"},{"id":6827,"name":"Meridian sportska kladionica","address":"Strugarska 1\/A\u00a0","postal_code":"11030","city":"Beograd ","municipality":"\u010cukarica","latitude":"44.77715","longitude":"20.40645","created_at":"2020-12-19T08:22:29.000000Z","updated_at":"2020-12-19T10:11:30.000000Z"},{"id":6828,"name":"Meridian sportska kladionica","address":"Prvomajska 2\/N\u00a0","postal_code":"11080","city":"Beograd ","municipality":"Zemun","latitude":"44.8413","longitude":"20.39635","created_at":"2020-12-19T08:22:29.000000Z","updated_at":"2020-12-19T10:11:30.000000Z"},{"id":6831,"name":"Meridian sportska kladionica","address":"Avalska 180\u00a0","postal_code":"11250","city":"Beograd ","municipality":"\u010cukarica","latitude":"44.6888","longitude":"20.4376","created_at":"2020-12-19T08:22:29.000000Z","updated_at":"2020-12-19T10:39:10.000000Z"},{"id":6832,"name":"Meridian sportska kladionica","address":"Radnih akcija 87\u00a0","postal_code":"11250","city":"Beograd ","municipality":"\u010cukarica","latitude":"44.7267","longitude":"20.37234","created_at":"2020-12-19T08:22:29.000000Z","updated_at":"2020-12-19T10:11:32.000000Z"},{"id":6833,"name":"Meridian sportska kladionica","address":"11. kraji\u0161ke divizije 52\/G\u00a0","postal_code":"11000","city":"Beograd ","municipality":"Rakovica","latitude":"44.72166","longitude":"20.43024","created_at":"2020-12-19T08:22:29.000000Z","updated_at":"2020-12-19T10:11:33.000000Z"},{"id":6836,"name":"Meridian sportska kladionica","address":"Bulevar mar\u0161ala Tolbuhina 18\/G\u00a0","postal_code":"11070","city":"Beograd ","municipality":"Novi Beograd","latitude":"44.83122","longitude":"20.41368","created_at":"2020-12-19T08:22:30.000000Z","updated_at":"2020-12-19T10:11:34.000000Z"},{"id":6837,"name":"Meridian sportska kladionica","address":"Kneza Vi\u0161eslava 63\u00a0","postal_code":"11090","city":"Beograd ","municipality":"Rakovica","latitude":"44.74446","longitude":"20.42679","created_at":"2020-12-19T08:22:30.000000Z","updated_at":"2020-12-19T10:11:34.000000Z"},{"id":6840,"name":"Meridian sportska kladionica","address":"Gandijeva 76\/A\/lokal 17 i 18\u00a0","postal_code":"11077","city":"Beograd ","municipality":"Novi Beograd","latitude":"44.80729","longitude":"20.38154","created_at":"2020-12-19T08:22:30.000000Z","updated_at":"2020-12-19T10:11:36.000000Z"}]
